{
  "jhApp": {
    "shop": {
      "home": {
        "title": "Shops",
        "createLabel": "创建新 Shop",
        "createOrEditLabel": "创建或编辑 Shop",
        "notFound": "No Shops found"
      },
      "created": "Shop {{ param }} 创建成功",
      "updated": "Shop {{ param }} 更新成功",
      "deleted": "Shop {{ param }} 删除成功",
      "delete": {
        "question": "你确定要删除 Shop {{ id }} 吗？"
      },
      "detail": {
        "title": "Shop"
      },
      "name": "Name",
      "sn": "Sn",
      "tel": "Tel",
      "address": "Address",
      "province": "Province",
      "city": "City",
      "district": "District",
      "offsetType": "Offset Type",
      "longitude": "Longitude",
      "latitude": "Latitude",
      "help": {
        "name": "门店名称",
        "sn": "门店编号，即微信门店的poi_id",
        "tel": "联系电话",
        "address": "详细地址（不含省市信息）",
        "province": "省、直辖市、自治区",
        "city": "城市",
        "district": "地区",
        "offsetType": "坐标类型。由于门店来自微信，因此这里坐标类型固定为 MARS",
        "longitude": "经度",
        "latitude": "纬度"
      }
    }
  }
}
